{
  "buildings": [
    {
      "id": "main_building",
      "name": "Main Academic Block",
      "latitude": 31.4705,
      "longitude": 74.4099,
      "height": 20.0,
      "width": 50.0,
      "depth": 30.0,
      "floors": 4,
      "year_built": 2000,
      "architectural_style": "Modern",
      "departments": ["Computer Science", "Software Engineering", "Electrical Engineering", "Mathematics"],
      "features": ["Main entrance", "Lecture halls", "Faculty offices", "Computer labs"]
    },
    {
      "id": "library",
      "name": "Central Library",
      "latitude": 31.4702,
      "longitude": 74.4095,
      "height": 15.0,
      "width": 40.0,
      "depth": 25.0,
      "floors": 3,
      "year_built": 2005,
      "architectural_style": "Contemporary",
      "departments": ["Library Sciences"],
      "features": ["Reading rooms", "Study areas", "Digital resources", "Group study rooms"]
    },
    {
      "id": "auditorium",
      "name": "Main Auditorium",
      "latitude": 31.4708,
      "longitude": 74.4097,
      "height": 12.0,
      "width": 35.0,
      "depth": 25.0,
      "floors": 2,
      "year_built": 2010,
      "architectural_style": "Modern",
      "departments": ["Events and Conferences"],
      "features": ["Main hall", "Stage", "VIP lounge", "Conference rooms"]
    },
    {
      "id": "cafeteria",
      "name": "Student Cafeteria",
      "latitude": 31.4703,
      "longitude": 74.4093,
      "height": 8.0,
      "width": 30.0,
      "depth": 20.0,
      "floors": 1,
      "year_built": 2015,
      "architectural_style": "Contemporary",
      "departments": ["Food Services"],
      "features": ["Dining area", "Food counters", "Outdoor seating"]
    },
    {
      "id": "sports_complex",
      "name": "Sports Complex",
      "latitude": 31.4706,
      "longitude": 74.4092,
      "height": 10.0,
      "width": 45.0,
      "depth": 35.0,
      "floors": 1,
      "year_built": 2018,
      "architectural_style": "Modern",
      "departments": ["Sports"],
      "features": ["Basketball court", "Badminton courts", "Table tennis area", "Gym"]
    }
  ],
  "paths": [
    {
      "id": "main_path",
      "name": "Main Campus Path",
      "points": [
        {"latitude": 31.4705, "longitude": 74.4099},
        {"latitude": 31.4702, "longitude": 74.4095},
        {"latitude": 31.4708, "longitude": 74.4097},
        {"latitude": 31.4703, "longitude": 74.4093},
        {"latitude": 31.4706, "longitude": 74.4092}
      ]
    },
    {
      "id": "library_path",
      "name": "Library Access Path",
      "points": [
        {"latitude": 31.4705, "longitude": 74.4099},
        {"latitude": 31.4702, "longitude": 74.4095}
      ]
    },
    {
      "id": "sports_path",
      "name": "Sports Complex Path",
      "points": [
        {"latitude": 31.4705, "longitude": 74.4099},
        {"latitude": 31.4706, "longitude": 74.4092}
      ]
    }
  ]
} 